{
  "type": "FeatureCollection",
  "generator": "overpass-turbo",
  "copyright": "The data included in this document is from www.openstreetmap.org. The data is made available under ODbL.",
  "timestamp": "2024-03-01T21:45:40Z",
  "features": [
    {
      "type": "Feature",
      "properties": {
        "@id": "node/26692149",
        "addr:postcode": "94370",
        "name": "Sucy-en-Brie",
        "place": "town",
        "ref:SIREN": "219400710",
        "short_name": "Sucy-en-B.",
        "wikidata": "Q363916",
        "wikipedia": "fr:Sucy-en-Brie"
      },
      "geometry": {
        "type": "Point",
        "coordinates": [
          2.5221284,
          48.7711323
        ]
      },
      "id": "node/26692149"
    },
    {
      "type": "Feature",
      "properties": {
        "@id": "node/26692618",
        "addr:postcode": "77680",
        "name": "Roissy-en-Brie",
        "place": "town",
        "wikidata": "Q1058168"
      },
      "geometry": {
        "type": "Point",
        "coordinates": [
          2.6545195,
          48.7903787
        ]
      },
      "id": "node/26692618"
    },
    {
      "type": "Feature",
      "properties": {
        "@id": "node/26694944",
        "addr:postcode": "94510",
        "name": "La Queue-en-Brie",
        "name:uk": "Ла-Ке-ан-Брі",
        "place": "town",
        "ref:FR:SIREN": "219400603",
        "short_name": "La-Queue-en-B.",
        "wikidata": "Q253428",
        "wikipedia": "fr:La Queue-en-Brie"
      },
      "geometry": {
        "type": "Point",
        "coordinates": [
          2.5749323,
          48.7903338
        ]
      },
      "id": "node/26694944"
    },
    {
      "type": "Feature",
      "properties": {
        "@id": "node/26695266",
        "addr:postcode": "77820",
        "name": "Le Châtelet-en-Brie",
        "place": "village",
        "ref:SIREN": "217701002",
        "wikipedia": "fr:Le Châtelet-en-Brie"
      },
      "geometry": {
        "type": "Point",
        "coordinates": [
          2.792873,
          48.5044282
        ]
      },
      "id": "node/26695266"
    },
    {
      "type": "Feature",
      "properties": {
        "@id": "node/26696190",
        "addr:postcode": "94440",
        "name": "Marolles-en-Brie",
        "place": "village",
        "ref:SIREN": "219400488",
        "short_name": "Marolles-en-B.",
        "wikidata": "Q936240",
        "wikipedia": "fr:Marolles-en-Brie (Val-de-Marne)"
      },
      "geometry": {
        "type": "Point",
        "coordinates": [
          2.55424,
          48.7391
        ]
      },
      "id": "node/26696190"
    },
    {
      "type": "Feature",
      "properties": {
        "@id": "node/26697758",
        "addr:postcode": "77220",
        "name": "Tournan-en-Brie",
        "place": "village"
      },
      "geometry": {
        "type": "Point",
        "coordinates": [
          2.7645642,
          48.7403305
        ]
      },
      "id": "node/26697758"
    },
    {
      "type": "Feature",
      "properties": {
        "@id": "node/26698446",
        "name": "Rozay-en-Brie",
        "place": "village"
      },
      "geometry": {
        "type": "Point",
        "coordinates": [
          2.96346,
          48.6848
        ]
      },
      "id": "node/26698446"
    },
    {
      "type": "Feature",
      "properties": {
        "@id": "node/95576670",
        "addr:postcode": "02330",
        "name": "Baulne-en-Brie",
        "place": "village",
        "population": "200",
        "ref:FR:SIREN": "210200523"
      },
      "geometry": {
        "type": "Point",
        "coordinates": [
          3.61459,
          48.9873
        ]
      },
      "id": "node/95576670"
    },
    {
      "type": "Feature",
      "properties": {
        "@id": "node/95577979",
        "addr:postcode": "02330",
        "name": "Condé-en-Brie",
        "place": "village",
        "ref:FR:SIREN": "210201943"
      },
      "geometry": {
        "type": "Point",
        "coordinates": [
          3.5591185,
          49.0040877
        ]
      },
      "id": "node/95577979"
    },
    {
      "type": "Feature",
      "properties": {
        "@id": "node/95578184",
        "addr:postcode": "02540",
        "name": "Fontenelle-en-Brie",
        "place": "village",
        "population": "200",
        "ref:FR:SIREN": "210203063"
      },
      "geometry": {
        "type": "Point",
        "coordinates": [
          3.4769883,
          48.9187852
        ]
      },
      "id": "node/95578184"
    },
    {
      "type": "Feature",
      "properties": {
        "@id": "node/95578627",
        "addr:postcode": "02540",
        "name": "Marchais-en-Brie",
        "place": "village",
        "population": "268",
        "ref:FR:SIREN": "210204350"
      },
      "geometry": {
        "type": "Point",
        "coordinates": [
          3.4852092,
          48.8833589
        ]
      },
      "id": "node/95578627"
    },
    {
      "type": "Feature",
      "properties": {
        "@id": "node/276093729",
        "addr:postcode": "77164",
        "name": "Ferrières-en-Brie",
        "place": "village",
        "ref:SIREN": "217701812"
      },
      "geometry": {
        "type": "Point",
        "coordinates": [
          2.7045126,
          48.8213887
        ]
      },
      "id": "node/276093729"
    },
    {
      "type": "Feature",
      "properties": {
        "@id": "node/276093762",
        "addr:postcode": "77600",
        "name": "Chanteloup-en-Brie",
        "place": "village",
        "ref:SIREN": "217700855",
        "wikidata": "Q419367",
        "wikipedia": "fr:Chanteloup-en-Brie"
      },
      "geometry": {
        "type": "Point",
        "coordinates": [
          2.7395512,
          48.8555777
        ]
      },
      "id": "node/276093762"
    },
    {
      "type": "Feature",
      "properties": {
        "@id": "node/319537420",
        "addr:postcode": "77830",
        "name": "Valence-en-Brie",
        "place": "village"
      },
      "geometry": {
        "type": "Point",
        "coordinates": [
          2.8875679,
          48.4437138
        ]
      },
      "id": "node/319537420"
    },
    {
      "type": "Feature",
      "properties": {
        "@id": "node/321864924",
        "addr:postcode": "77370",
        "name": "La Croix-en-Brie",
        "place": "village",
        "source": "cadastre-dgi-fr source : Direction Générale des Impôts - Cadastre. Mise à jour : 2011"
      },
      "geometry": {
        "type": "Point",
        "coordinates": [
          3.0734585,
          48.5916035
        ]
      },
      "id": "node/321864924"
    },
    {
      "type": "Feature",
      "properties": {
        "@id": "node/416768787",
        "addr:postcode": "77320",
        "name": "Choisy-en-Brie",
        "place": "village"
      },
      "geometry": {
        "type": "Point",
        "coordinates": [
          3.217024,
          48.7592152
        ]
      },
      "id": "node/416768787"
    },
    {
      "type": "Feature",
      "properties": {
        "@id": "node/472563738",
        "name": "Mareuil-en-Brie",
        "place": "village"
      },
      "geometry": {
        "type": "Point",
        "coordinates": [
          3.7464441,
          48.9587862
        ]
      },
      "id": "node/472563738"
    },
    {
      "type": "Feature",
      "properties": {
        "@id": "node/523977203",
        "addr:postcode": "77440",
        "name": "Armentières-en-Brie",
        "place": "village",
        "ref:SIREN": "217700087"
      },
      "geometry": {
        "type": "Point",
        "coordinates": [
          3.0216469,
          48.9786624
        ]
      },
      "id": "node/523977203"
    },
    {
      "type": "Feature",
      "properties": {
        "@id": "node/525631973",
        "addr:postcode": "77220",
        "name": "Presles-en-Brie",
        "place": "village",
        "ref:SIREN": "217703776"
      },
      "geometry": {
        "type": "Point",
        "coordinates": [
          2.7424916,
          48.7123591
        ]
      },
      "id": "node/525631973"
    },
    {
      "type": "Feature",
      "properties": {
        "@id": "node/619214594",
        "addr:postcode": "77720",
        "name": "Saint-Ouen-en-Brie",
        "place": "village"
      },
      "geometry": {
        "type": "Point",
        "coordinates": [
          2.9168241,
          48.5574066
        ]
      },
      "id": "node/619214594"
    },
    {
      "type": "Feature",
      "properties": {
        "@id": "node/639804602",
        "addr:postcode": "77111",
        "name": "Soignolles-en-Brie",
        "place": "village",
        "source": "cadastre-dgi-fr source : Direction Générale des Impôts - Cadastre. Mise à jour : 2010"
      },
      "geometry": {
        "type": "Point",
        "coordinates": [
          2.6968426,
          48.6546406
        ]
      },
      "id": "node/639804602"
    },
    {
      "type": "Feature",
      "properties": {
        "@id": "node/646693884",
        "addr:postcode": "77120",
        "name": "Marolles-en-Brie",
        "place": "village",
        "population": "401",
        "ref:SIREN": "217702786",
        "source:population": "INSEE 2013"
      },
      "geometry": {
        "type": "Point",
        "coordinates": [
          3.162953,
          48.7761644
        ]
      },
      "id": "node/646693884"
    },
    {
      "type": "Feature",
      "properties": {
        "@id": "node/659766411",
        "addr:postcode": "77580",
        "name": "Maisoncelles-en-Brie",
        "place": "village",
        "ref:SIREN": "217702703",
        "source": "cadastre-dgi-fr source : Direction Générale des Impôts - Cadastre. Mise à jour : 2010"
      },
      "geometry": {
        "type": "Point",
        "coordinates": [
          2.9877138,
          48.8616427
        ]
      },
      "id": "node/659766411"
    },
    {
      "type": "Feature",
      "properties": {
        "@id": "node/1057849601",
        "addr:postcode": "77320",
        "name": "Leudon-en-Brie",
        "place": "village",
        "source": "cadastre-dgi-fr source : Direction Générale des Impôts - Cadastre. Mise à jour : 2010"
      },
      "geometry": {
        "type": "Point",
        "coordinates": [
          3.2721905,
          48.7341309
        ]
      },
      "id": "node/1057849601"
    },
    {
      "type": "Feature",
      "properties": {
        "@id": "node/1073922008",
        "addr:postcode": "77560",
        "name": "Augers-en-Brie",
        "place": "village",
        "ref:SIREN": "217700129",
        "source": "cadastre-dgi-fr source : Direction Générale des Impôts - Cadastre. Mise à jour : 2010"
      },
      "geometry": {
        "type": "Point",
        "coordinates": [
          3.3563008,
          48.6794001
        ]
      },
      "id": "node/1073922008"
    },
    {
      "type": "Feature",
      "properties": {
        "@id": "node/1081911562",
        "addr:postcode": "77610",
        "name": "La Houssaye-en-Brie",
        "place": "village"
      },
      "geometry": {
        "type": "Point",
        "coordinates": [
          2.8751466,
          48.7537003
        ]
      },
      "id": "node/1081911562"
    },
    {
      "type": "Feature",
      "properties": {
        "@id": "node/1081912624",
        "addr:postcode": "77610",
        "name": "Marles-en-Brie",
        "name:uk": "Марль-ан-Брі",
        "place": "village",
        "ref:FR:SIREN": "217702778",
        "wikidata": "Q614190",
        "wikipedia": "fr:Marles-en-Brie"
      },
      "geometry": {
        "type": "Point",
        "coordinates": [
          2.8782706,
          48.7278063
        ]
      },
      "id": "node/1081912624"
    },
    {
      "type": "Feature",
      "properties": {
        "@id": "node/1086947177",
        "addr:postcode": "77141",
        "name": "Vaudoy-en-Brie",
        "place": "village",
        "source": "cadastre-dgi-fr source : Direction Générale des Impôts - Cadastre. Mise à jour : 2011"
      },
      "geometry": {
        "type": "Point",
        "coordinates": [
          3.0807951,
          48.6886359
        ]
      },
      "id": "node/1086947177"
    },
    {
      "type": "Feature",
      "properties": {
        "@id": "node/1092494651",
        "addr:postcode": "77370",
        "name": "Saint-Just-en-Brie",
        "place": "village",
        "ref:SIREN": "217704162",
        "source": "cadastre-dgi-fr source : Direction Générale des Impôts - Cadastre. Mise à jour : 2011"
      },
      "geometry": {
        "type": "Point",
        "coordinates": [
          3.1175132,
          48.6112054
        ]
      },
      "id": "node/1092494651"
    },
    {
      "type": "Feature",
      "properties": {
        "@id": "node/1100781477",
        "addr:postcode": "77390",
        "name": "Chaumes-en-Brie",
        "place": "village",
        "ref:SIREN": "217701077",
        "source": "cadastre-dgi-fr source : Direction Générale des Impôts - Cadastre. Mise à jour : 2011"
      },
      "geometry": {
        "type": "Point",
        "coordinates": [
          2.842398,
          48.6647753
        ]
      },
      "id": "node/1100781477"
    },
    {
      "type": "Feature",
      "properties": {
        "@id": "node/1102664475",
        "addr:postcode": "77220",
        "name": "Liverdy-en-Brie",
        "place": "village",
        "ref:SIREN": "217702547",
        "source": "cadastre-dgi-fr source : Direction Générale des Impôts - Cadastre. Mise à jour : 2011"
      },
      "geometry": {
        "type": "Point",
        "coordinates": [
          2.7758202,
          48.6996708
        ]
      },
      "id": "node/1102664475"
    },
    {
      "type": "Feature",
      "properties": {
        "@id": "node/1103918545",
        "name": "Bernay-en-Brie",
        "place": "village",
        "postal_code": "77540",
        "ref:FR:SIREN": "217700319",
        "source": "cadastre-dgi-fr source : Direction Générale des Impôts - Cadastre. Mise à jour : 2011"
      },
      "geometry": {
        "type": "Point",
        "coordinates": [
          2.9377531,
          48.6763829
        ]
      },
      "id": "node/1103918545"
    },
    {
      "type": "Feature",
      "properties": {
        "@id": "node/1104281464",
        "addr:postcode": "77610",
        "name": "Crèvecœur-en-Brie",
        "place": "village",
        "ref:SIREN": "217701440",
        "source": "cadastre-dgi-fr source : Direction Générale des Impôts - Cadastre. Mise à jour : 2011"
      },
      "geometry": {
        "type": "Point",
        "coordinates": [
          2.907188,
          48.7538584
        ]
      },
      "id": "node/1104281464"
    },
    {
      "type": "Feature",
      "properties": {
        "@id": "node/1109736196",
        "addr:postcode": "77610",
        "name": "Neufmoutiers-en-Brie",
        "place": "village",
        "source": "cadastre-dgi-fr source : Direction Générale des Impôts - Cadastre. Mise à jour : 2011",
        "wikidata": "Q1459717"
      },
      "geometry": {
        "type": "Point",
        "coordinates": [
          2.8268273,
          48.7747207
        ]
      },
      "id": "node/1109736196"
    },
    {
      "type": "Feature",
      "properties": {
        "@id": "node/1134550389",
        "addr:postcode": "77148",
        "name": "Laval-en-Brie",
        "place": "village",
        "source": "cadastre-dgi-fr source : Direction Générale des Impôts - Cadastre. Mise à jour : 2011"
      },
      "geometry": {
        "type": "Point",
        "coordinates": [
          2.9965183,
          48.4250631
        ]
      },
      "id": "node/1134550389"
    },
    {
      "type": "Feature",
      "properties": {
        "@id": "node/1244273438",
        "addr:postcode": "77120",
        "name": "Chailly-en-Brie",
        "place": "village"
      },
      "geometry": {
        "type": "Point",
        "coordinates": [
          3.1242603,
          48.7892721
        ]
      },
      "id": "node/1244273438"
    },
    {
      "type": "Feature",
      "properties": {
        "@id": "node/1706129328",
        "name": "Loisy-en-Brie",
        "place": "village"
      },
      "geometry": {
        "type": "Point",
        "coordinates": [
          3.90134,
          48.88252
        ]
      },
      "id": "node/1706129328"
    },
    {
      "type": "Feature",
      "properties": {
        "@id": "node/1871648166",
        "addr:postcode": "77260",
        "name": "Reuil-en-Brie",
        "place": "village"
      },
      "geometry": {
        "type": "Point",
        "coordinates": [
          3.14612,
          48.96046
        ]
      },
      "id": "node/1871648166"
    },
    {
      "type": "Feature",
      "properties": {
        "@id": "node/4455161797",
        "name": "Saint-Mars-en-Brie",
        "place": "village"
      },
      "geometry": {
        "type": "Point",
        "coordinates": [
          3.320505,
          48.7414696
        ]
      },
      "id": "node/4455161797"
    }
  ]
}